{
    "zones": [
      {
        "id": "zone_001",
        "name": "Yamuna Bank Ghat 7",
        "lat": 28.6562,
        "lng": 77.2410,
        "pollution_score": 85,
        "domain": "water",
        "severity": "critical",
        "volunteer_demand": 15,
        "volunteers_available": 4,
        "predicted_critical": true,
        "prediction_message": "Predicted to hit critical levels in 3 days based on upstream flow data",
        "description": "High plastic and industrial waste accumulation near Ghat 7"
      },
      {
        "id": "zone_002",
        "name": "Nizamuddin Ghat",
        "lat": 28.5921,
        "lng": 77.2500,
        "pollution_score": 72,
        "domain": "water",
        "severity": "high",
        "volunteer_demand": 10,
        "volunteers_available": 3,
        "predicted_critical": false,
        "prediction_message": null,
        "description": "Persistent garbage dumping and sewage overflow near the ghat"
      },
      {
        "id": "zone_003",
        "name": "Anand Vihar",
        "lat": 28.6469,
        "lng": 77.3151,
        "pollution_score": 78,
        "domain": "air",
        "severity": "critical",
        "volunteer_demand": 12,
        "volunteers_available": 2,
        "predicted_critical": false,
        "prediction_message": null,
        "description": "AQI consistently above 300 due to traffic and industrial emissions"
      },
      {
        "id": "zone_004",
        "name": "Mayur Vihar Zone 3",
        "lat": 28.6090,
        "lng": 77.2940,
        "pollution_score": 65,
        "domain": "flood",
        "severity": "high",
        "volunteer_demand": 8,
        "volunteers_available": 6,
        "predicted_critical": false,
        "prediction_message": null,
        "description": "Waterlogging risk due to blocked drainage and low elevation"
      },
      {
        "id": "zone_005",
        "name": "Rohini Sector 21",
        "lat": 28.7041,
        "lng": 77.1025,
        "pollution_score": 45,
        "domain": "air",
        "severity": "moderate",
        "volunteer_demand": 5,
        "volunteers_available": 8,
        "predicted_critical": false,
        "prediction_message": null,
        "description": "Moderate air quality, seasonal dust and vehicle emissions"
      },
      {
        "id": "zone_006",
        "name": "Dwarka Sector 10",
        "lat": 28.5921,
        "lng": 77.0460,
        "pollution_score": 30,
        "domain": "water",
        "severity": "low",
        "volunteer_demand": 3,
        "volunteers_available": 10,
        "predicted_critical": false,
        "prediction_message": null,
        "description": "Relatively clean zone, minor littering around parks"
      },
      {
        "id": "zone_007",
        "name": "Lajpat Nagar",
        "lat": 28.5672,
        "lng": 77.2430,
        "pollution_score": 60,
        "domain": "food",
        "severity": "moderate",
        "volunteer_demand": 7,
        "volunteers_available": 5,
        "predicted_critical": false,
        "prediction_message": null,
        "description": "Food surplus from markets needs redistribution to nearby shelters"
      },
      {
        "id": "zone_008",
        "name": "Okhla Industrial Area",
        "lat": 28.5355,
        "lng": 77.2719,
        "pollution_score": 88,
        "domain": "air",
        "severity": "critical",
        "volunteer_demand": 14,
        "volunteers_available": 2,
        "predicted_critical": false,
        "prediction_message": null,
        "description": "Heavy industrial emissions, AQI frequently hazardous"
      }
    ]
  }